{
  "type": "FeatureCollection",
  "features": [
    {
      "type": "Feature",
      "geometry": {
        "type": "Point",
        "coordinates": [
          -81.76,
          24.5561,
          1
        ]
      },
      "properties": {
        "title": "Key West / Key West Intl",
        "marker-symbol": "airport"
      }
    },
    {
      "type": "Feature",
      "geometry": {
        "type": "Point",
        "coordinates": [
          -81.76764761743071,
          24.55597839079851,
          1
        ]
      },
      "properties": {
        "title": "09",
        "marker-symbol": "triangle"
      }
    },
    {
      "type": "Feature",
      "geometry": {
        "type": "Point",
        "coordinates": [
          -81.75235236775978,
          24.55622122335174,
          1
        ]
      },
      "properties": {
        "title": "27",
        "marker-symbol": "triangle-stroked"
      }
    },
    {
      "type": "Feature",
      "geometry": {
        "type": "Point",
        "coordinates": [
          -81.68611770570301,
          24.67117449013198,
          483.4018840702572
        ]
      },
      "properties": {
        "title": "C172",
        "marker-symbol": "airfield"
      }
    },
    {
      "type": "Feature",
      "geometry": {
        "type": "Point",
        "coordinates": [
          -81.73404341121,
          24.556508175831503,
          1
        ]
      },
      "properties": {
        "title": "09-CROSS",
        "marker-symbol": "racetrack"
      }
    },
    {
      "type": "Feature",
      "geometry": {
        "type": "Point",
        "coordinates": [
          -81.73436303681622,
          24.573161074932507,
          1
        ]
      },
      "properties": {
        "title": "09-DOWN",
        "marker-symbol": "racetrack"
      }
    },
    {
      "type": "Feature",
      "geometry": {
        "type": "Point",
        "coordinates": [
          -81.78627602745664,
          24.572339506721192,
          1
        ]
      },
      "properties": {
        "title": "09-BASE",
        "marker-symbol": "racetrack"
      }
    },
    {
      "type": "Feature",
      "geometry": {
        "type": "Point",
        "coordinates": [
          -81.78595640394609,
          24.55568660762018,
          1
        ]
      },
      "properties": {
        "title": "09-FINAL",
        "marker-symbol": "racetrack"
      }
    }
  ]
}