{
  "type": "FeatureCollection",
  "features": [
    {
      "type": "Feature",
      "geometry": {
        "type": "Point",
        "coordinates": [-121.239, 37.8944, 10]
      },
      "properties": {
        "title": "Stockton Metro",
        "marker-symbol": "airport",
        "frequency": 120.3
      }
    },
    {
      "type": "Feature",
      "geometry": {
        "type": "Point",
        "coordinates": [-121.2530284056665, 37.90304732238663, 10]
      },
      "properties": {
        "title": "11L",
        "marker-symbol": "triangle-stroked",
        "alignment": 128,
        "dimension": [10249, 150],
        "frequency": 0,
        "isRightPattern": false
      }
    },
    {
      "type": "Feature",
      "geometry": {
        "type": "Point",
        "coordinates": [-121.22497489003072, 37.885751013189974, 10]
      },
      "properties": {
        "title": "29R",
        "marker-symbol": "triangle-stroked",
        "alignment": 308.1,
        "dimension": [10249, 150],
        "frequency": 0,
        "isRightPattern": true
      }
    },
    {
      "type": "Feature",
      "geometry": {
        "type": "Point",
        "coordinates": [-121.24508783287, 37.89815308671054, 10]
      },
      "properties": {
        "title": "11R",
        "marker-symbol": "triangle",
        "alignment": 128.10000000000002,
        "dimension": [4448, 75],
        "frequency": 0,
        "isRightPattern": true
      }
    },
    {
      "type": "Feature",
      "geometry": {
        "type": "Point",
        "coordinates": [-121.23291278787592, 37.890646599794636, 10]
      },
      "properties": {
        "title": "29L",
        "marker-symbol": "triangle-stroked",
        "alignment": 308,
        "dimension": [4448, 75],
        "frequency": 0,
        "isRightPattern": false
      }
    },
    {
      "type": "Feature",
      "geometry": {
        "type": "Point",
        "coordinates": [-121.23900000000002, 37.89430406037415, 10]
      },
      "properties": {
        "title": "H1",
        "marker-symbol": "heliport",
        "alignment": 0,
        "dimension": [70, 70],
        "frequency": 0,
        "isRightPattern": false
      }
    },
    {
      "type": "Feature",
      "geometry": {
        "type": "Point",
        "coordinates": [-121.07367363518982, 37.86745302652686, 761.9999756160008]
      },
      "properties": {
        "title": "C172",
        "marker-symbol": "airfield"
      }
    },
    {
      "type": "Feature",
      "geometry": {
        "type": "LineString",
        "coordinates": [
          [-121.21632608560132, 37.880349341164404, 314.79999024640034],
          [-121.22934425607136, 37.86724187835551, 314.79999024640034],
          [-121.25202065365893, 37.88129253682835, 314.79999024640034],
          [-121.27472294547226, 37.89532145758199, 204.95007376159765],
          [-121.26169981073939, 37.90842892111597, 107.47503688079883],
          [-121.21632608560132, 37.880349341164404, 314.79999024640034]
        ]
      },
      "properties": {
        "title": "Traffic pattern",
        "stroke-opacity": 0.2
      }
    },
    {
      "type": "Feature",
      "geometry": {
        "type": "LineString",
        "coordinates": [
          [-121.07367363518982, 37.86745302652686, 761.9999756160008],
          [-121.25075323576786, 37.873025126777954, 314.79999024640034],
          [-121.25202065365893, 37.88129253682835, 314.79999024640034],
          [-121.27472294547226, 37.89532145758199, 204.95007376159765],
          [-121.26169981073939, 37.90842892111597, 107.47503688079883],
          [-121.24508783287, 37.89815308671054, 10]
        ]
      },
      "properties": {
        "title": "Flight plan",
        "stroke": "#ff1493"
      }
    },
    {
      "type": "Feature",
      "geometry": {
        "type": "Point",
        "coordinates": [-121.21632608560132, 37.880349341164404, 314.79999024640034]
      },
      "properties": {
        "title": "11R-CROSS",
        "marker-symbol": "racetrack"
      }
    },
    {
      "type": "Feature",
      "geometry": {
        "type": "Point",
        "coordinates": [-121.22934425607136, 37.86724187835551, 314.79999024640034]
      },
      "properties": {
        "title": "11R-DOWN",
        "marker-symbol": "racetrack"
      }
    },
    {
      "type": "Feature",
      "geometry": {
        "type": "Point",
        "coordinates": [-121.25202065365893, 37.88129253682835, 314.79999024640034]
      },
      "properties": {
        "title": "11R-ENTRY",
        "marker-symbol": "racetrack"
      }
    },
    {
      "type": "Feature",
      "geometry": {
        "type": "Point",
        "coordinates": [-121.27472294547226, 37.89532145758199, 204.95007376159765]
      },
      "properties": {
        "title": "11R-BASE",
        "marker-symbol": "racetrack"
      }
    },
    {
      "type": "Feature",
      "geometry": {
        "type": "Point",
        "coordinates": [-121.26169981073939, 37.90842892111597, 107.47503688079883]
      },
      "properties": {
        "title": "11R-FINAL",
        "marker-symbol": "racetrack"
      }
    }
  ]
}
