{
  "type": "FeatureCollection",
  "features": [
    {
      "type": "Feature",
      "geometry": {
        "type": "Point",
        "coordinates": [-121.239, 37.8944, 10]
      },
      "properties": {
        "title": "Stockton Metro",
        "marker-symbol": "airport",
        "frequency": 120.3
      }
    },
    {
      "type": "Feature",
      "geometry": {
        "type": "Point",
        "coordinates": [-121.2530284056665, 37.90304732238663, 10]
      },
      "properties": {
        "title": "11L",
        "marker-symbol": "triangle-stroked",
        "alignment": 128,
        "dimension": [10249, 150],
        "frequency": 0,
        "isRightPattern": false
      }
    },
    {
      "type": "Feature",
      "geometry": {
        "type": "Point",
        "coordinates": [-121.22497489003072, 37.885751013189974, 10]
      },
      "properties": {
        "title": "29R",
        "marker-symbol": "triangle-stroked",
        "alignment": 308.1,
        "dimension": [10249, 150],
        "frequency": 0,
        "isRightPattern": true
      }
    },
    {
      "type": "Feature",
      "geometry": {
        "type": "Point",
        "coordinates": [-121.24508783287, 37.89815308671054, 10]
      },
      "properties": {
        "title": "11R",
        "marker-symbol": "triangle-stroked",
        "alignment": 128.10000000000002,
        "dimension": [4448, 75],
        "frequency": 0,
        "isRightPattern": true
      }
    },
    {
      "type": "Feature",
      "geometry": {
        "type": "Point",
        "coordinates": [-121.23291278787592, 37.890646599794636, 10]
      },
      "properties": {
        "title": "29L",
        "marker-symbol": "triangle",
        "alignment": 308,
        "dimension": [4448, 75],
        "frequency": 0,
        "isRightPattern": false
      }
    },
    {
      "type": "Feature",
      "geometry": {
        "type": "Point",
        "coordinates": [-121.23902111112454, 37.894305517910745, 10]
      },
      "properties": {
        "title": "H1",
        "marker-symbol": "heliport",
        "alignment": 10,
        "dimension": [70, 70],
        "frequency": 0,
        "isRightPattern": false
      }
    },
    {
      "type": "Feature",
      "geometry": {
        "type": "Point",
        "coordinates": [-121.40783167519274, 37.89623561313588, 1066.799965862401]
      },
      "properties": {
        "title": "C172",
        "marker-symbol": "airfield"
      }
    },
    {
      "type": "Feature",
      "geometry": {
        "type": "LineString",
        "coordinates": [
          [-121.26172483025714, 37.90840368632503, 314.79999024640034],
          [-121.27471894934487, 37.895278309205175, 314.79999024640034],
          [-121.25199164799685, 37.881274623240195, 314.79999024640034],
          [-121.22927361381214, 37.8672659434265, 204.95007376159765],
          [-121.21628443607099, 37.880391319826245, 107.47503688079883],
          [-121.26172483025714, 37.90840368632503, 314.79999024640034]
        ]
      },
      "properties": {
        "title": "Traffic pattern",
        "stroke-opacity": 0.2
      }
    },
    {
      "type": "Feature",
      "geometry": {
        "type": "LineString",
        "coordinates": [
          [-121.40783167519274, 37.89623561313588, 1066.799965862401],
          [-121.26246382553984, 37.88025926589112, 314.79999024640034],
          [-121.25199164799685, 37.881274623240195, 314.79999024640034],
          [-121.22927361381214, 37.8672659434265, 204.95007376159765],
          [-121.21628443607099, 37.880391319826245, 107.47503688079883],
          [-121.23291278787592, 37.890646599794636, 10]
        ]
      },
      "properties": {
        "title": "Flight plan",
        "stroke": "#ff1493"
      }
    },
    {
      "type": "Feature",
      "geometry": {
        "type": "Point",
        "coordinates": [-121.26172483025714, 37.90840368632503, 314.79999024640034]
      },
      "properties": {
        "title": "29L-CROSS",
        "marker-symbol": "racetrack"
      }
    },
    {
      "type": "Feature",
      "geometry": {
        "type": "Point",
        "coordinates": [-121.27471894934487, 37.895278309205175, 314.79999024640034]
      },
      "properties": {
        "title": "29L-DOWN",
        "marker-symbol": "racetrack"
      }
    },
    {
      "type": "Feature",
      "geometry": {
        "type": "Point",
        "coordinates": [-121.25199164799685, 37.881274623240195, 314.79999024640034]
      },
      "properties": {
        "title": "29L-ENTRY",
        "marker-symbol": "racetrack"
      }
    },
    {
      "type": "Feature",
      "geometry": {
        "type": "Point",
        "coordinates": [-121.22927361381214, 37.8672659434265, 204.95007376159765]
      },
      "properties": {
        "title": "29L-BASE",
        "marker-symbol": "racetrack"
      }
    },
    {
      "type": "Feature",
      "geometry": {
        "type": "Point",
        "coordinates": [-121.21628443607099, 37.880391319826245, 107.47503688079883]
      },
      "properties": {
        "title": "29L-FINAL",
        "marker-symbol": "racetrack"
      }
    }
  ]
}
