{
  "type": "FeatureCollection",
  "features": [
    {
      "type": "Feature",
      "geometry": {
        "type": "Point",
        "coordinates": [
          -106.9159,
          39.6427,
          1996.2
        ]
      },
      "properties": {
        "title": "Eagle County Regional",
        "marker-symbol": "airport"
      }
    },
    {
      "type": "Feature",
      "geometry": {
        "type": "Point",
        "coordinates": [
          -106.9317625254147,
          39.64098220784217,
          1996.2
        ]
      },
      "properties": {
        "title": "07",
        "marker-symbol": "triangle"
      }
    },
    {
      "type": "Feature",
      "geometry": {
        "type": "Point",
        "coordinates": [
          -106.90003668700388,
          39.64441563453717,
          1996.2
        ]
      },
      "properties": {
        "title": "25",
        "marker-symbol": "triangle-stroked"
      }
    },
    {
      "type": "Feature",
      "geometry": {
        "type": "Point",
        "coordinates": [
          -107.05668323790673,
          39.56531592029489,
          4724.399848819205
        ]
      },
      "properties": {
        "title": "C172",
        "marker-symbol": "airfield"
      }
    },
    {
      "type": "Feature",
      "geometry": {
        "type": "Point",
        "coordinates": [
          -106.87861471883349,
          39.64672151381566,
          2300.9999902464006
        ]
      },
      "properties": {
        "title": "07-CROSS",
        "marker-symbol": "racetrack"
      }
    },
    {
      "type": "Feature",
      "geometry": {
        "type": "Point",
        "coordinates": [
          -106.87560503516846,
          39.63022812839312,
          2300.9999902464006
        ]
      },
      "properties": {
        "title": "07-DOWN",
        "marker-symbol": "racetrack"
      }
    },
    {
      "type": "Feature",
      "geometry": {
        "type": "Point",
        "coordinates": [
          -106.95017081600025,
          39.622168867099006,
          2300.9999902464006
        ]
      },
      "properties": {
        "title": "07-BASE",
        "marker-symbol": "racetrack"
      }
    },
    {
      "type": "Feature",
      "geometry": {
        "type": "Point",
        "coordinates": [
          -106.95318014913886,
          39.638662252510436,
          2300.9999902464006
        ]
      },
      "properties": {
        "title": "07-FINAL",
        "marker-symbol": "racetrack"
      }
    }
  ]
}