{
  "type": "FeatureCollection",
  "features": [
    {
      "type": "Feature",
      "geometry": {
        "type": "Point",
        "coordinates": [
          -81.76,
          24.5561,
          1
        ]
      },
      "properties": {
        "title": "Key West International",
        "marker-symbol": "airport",
        "frequency": 118.2
      }
    },
    {
      "type": "Feature",
      "geometry": {
        "type": "Point",
        "coordinates": [
          -81.76764761743071,
          24.55597839079851,
          1
        ]
      },
      "properties": {
        "title": "09",
        "marker-symbol": "triangle",
        "frequency": 0,
        "isRightPattern": true
      }
    },
    {
      "type": "Feature",
      "geometry": {
        "type": "Point",
        "coordinates": [
          -81.75235236775978,
          24.55622122335174,
          1
        ]
      },
      "properties": {
        "title": "27",
        "marker-symbol": "triangle-stroked",
        "frequency": 0,
        "isRightPattern": false
      }
    },
    {
      "type": "Feature",
      "geometry": {
        "type": "Point",
        "coordinates": [
          -81.7864,
          24.5483,
          1
        ]
      },
      "properties": {
        "title": "FIS",
        "marker-symbol": "communications-tower",
        "frequency": 332,
        "type": "NDB"
      }
    },
    {
      "type": "Feature",
      "geometry": {
        "type": "Point",
        "coordinates": [
          -81.8005,
          24.5859,
          3
        ]
      },
      "properties": {
        "title": "EYW",
        "marker-symbol": "communications-tower",
        "frequency": 113.5,
        "type": "VORTAC"
      }
    },
    {
      "type": "Feature",
      "geometry": {
        "type": "Point",
        "coordinates": [
          -81.87818729623388,
          24.47741834460292,
          1066.799965862401
        ]
      },
      "properties": {
        "title": "PTS2",
        "marker-symbol": "airfield"
      }
    },
    {
      "type": "Feature",
      "geometry": {
        "type": "LineString",
        "coordinates": [
          [
            -81.73404341121,
            24.556508175831503,
            305.1047902366467
          ],
          [
            -81.7337238704865,
            24.539855276056702,
            305.1047902366467
          ],
          [
            -81.7596804603158,
            24.539447100225196,
            305.1047902366467
          ],
          [
            -81.8222541826303,
            24.538443507185068,
            305.1047902366467
          ],
          [
            -81.82257371975919,
            24.555096406959848,
            293.4251106423965
          ],
          [
            -81.73404341121,
            24.556508175831503,
            305.1047902366467
          ]
        ]
      },
      "properties": {
        "title": "Traffic pattern",
        "stroke-opacity": 0.2
      }
    },
    {
      "type": "Feature",
      "geometry": {
        "type": "LineString",
        "coordinates": [
          [
            -81.87818729623388,
            24.47741834460292,
            1066.799965862401
          ],
          [
            -81.7596804603158,
            24.539447100225196,
            305.1047902366467
          ],
          [
            -81.8222541826303,
            24.538443507185068,
            305.1047902366467
          ],
          [
            -81.82257371975919,
            24.555096406959848,
            293.4251106423965
          ],
          [
            -81.76764761743071,
            24.55597839079851,
            1
          ]
        ]
      },
      "properties": {
        "title": "Flight plan",
        "stroke": "#ff1493"
      }
    },
    {
      "type": "Feature",
      "geometry": {
        "type": "Point",
        "coordinates": [
          -81.73404341121,
          24.556508175831503,
          305.1047902366467
        ]
      },
      "properties": {
        "title": "09-CROSS",
        "marker-symbol": "racetrack"
      }
    },
    {
      "type": "Feature",
      "geometry": {
        "type": "Point",
        "coordinates": [
          -81.7337238704865,
          24.539855276056702,
          305.1047902366467
        ]
      },
      "properties": {
        "title": "09-DOWN",
        "marker-symbol": "racetrack"
      }
    },
    {
      "type": "Feature",
      "geometry": {
        "type": "Point",
        "coordinates": [
          -81.7596804603158,
          24.539447100225196,
          305.1047902366467
        ]
      },
      "properties": {
        "title": "09-ENTRY",
        "marker-symbol": "racetrack"
      }
    },
    {
      "type": "Feature",
      "geometry": {
        "type": "Point",
        "coordinates": [
          -81.8222541826303,
          24.538443507185068,
          305.1047902366467
        ]
      },
      "properties": {
        "title": "09-BASE",
        "marker-symbol": "racetrack"
      }
    },
    {
      "type": "Feature",
      "geometry": {
        "type": "Point",
        "coordinates": [
          -81.82257371975919,
          24.555096406959848,
          293.4251106423965
        ]
      },
      "properties": {
        "title": "09-FINAL",
        "marker-symbol": "racetrack"
      }
    }
  ]
}