{
  "type": "FeatureCollection",
  "features": [
    {
      "type": "Feature",
      "geometry": {
        "type": "Point",
        "coordinates": [
          -81.76,
          24.5561,
          1
        ]
      },
      "properties": {
        "title": "Key West International",
        "marker-symbol": "airport"
      }
    },
    {
      "type": "Feature",
      "geometry": {
        "type": "Point",
        "coordinates": [
          -81.76764761743071,
          24.55597839079851,
          1
        ]
      },
      "properties": {
        "title": "09",
        "marker-symbol": "triangle-stroked"
      }
    },
    {
      "type": "Feature",
      "geometry": {
        "type": "Point",
        "coordinates": [
          -81.75235236775978,
          24.55622122335174,
          1
        ]
      },
      "properties": {
        "title": "27",
        "marker-symbol": "triangle"
      }
    },
    {
      "type": "Feature",
      "geometry": {
        "type": "Point",
        "coordinates": [
          -81.89167250531757,
          24.614557315999523,
          1066.799965862401
        ]
      },
      "properties": {
        "title": "PTS2",
        "marker-symbol": "airfield"
      }
    },
    {
      "type": "Feature",
      "geometry": {
        "type": "Point",
        "coordinates": [
          -81.78595635311622,
          24.555683988435014,
          305.79999024640034
        ]
      },
      "properties": {
        "title": "27-CROSS",
        "marker-symbol": "racetrack"
      }
    },
    {
      "type": "Feature",
      "geometry": {
        "type": "Point",
        "coordinates": [
          -81.78563681449128,
          24.53903108866022,
          305.79999024640034
        ]
      },
      "properties": {
        "title": "27-DOWN",
        "marker-symbol": "racetrack"
      }
    },
    {
      "type": "Feature",
      "geometry": {
        "type": "Point",
        "coordinates": [
          -81.7596804603158,
          24.539447100225196,
          1
        ]
      },
      "properties": {
        "title": "27-ENTRY",
        "marker-symbol": "racetrack"
      }
    },
    {
      "type": "Feature",
      "geometry": {
        "type": "Point",
        "coordinates": [
          -81.73372392017859,
          24.539857895254762,
          305.79999024640034
        ]
      },
      "properties": {
        "title": "27-BASE",
        "marker-symbol": "racetrack"
      }
    },
    {
      "type": "Feature",
      "geometry": {
        "type": "Point",
        "coordinates": [
          -81.73404346090877,
          24.55651079502957,
          305.79999024640034
        ]
      },
      "properties": {
        "title": "27-FINAL",
        "marker-symbol": "racetrack"
      }
    }
  ]
}