{
  "type": "FeatureCollection",
  "features": [
    {
      "type": "Feature",
      "properties": {
        "marker-symbol": "hospital",
        "title": "Klinikum Lüneburg"
      },
      "geometry": {
        "coordinates": [
          10.395809103928087,
          53.24022377837517
        ],
        "type": "Point"
      },
      "id": 0
    },
    {
      "type": "Feature",
      "properties": {
        "title": "de0819",
        "marker-symbol": "heliport",
        "direction": 270
      },
      "geometry": {
        "coordinates": [
          10.3959,
          53.2408,
          34
        ],
        "type": "Point"
      },
      "id": 1
    },
    {
      "type": "Feature",
      "properties": {
        "title": "MedEvac at Amelinghausen, Sportplatz"
      },
      "geometry": {
        "coordinates": [
          10.22211473995057,
          53.124447358131846
        ],
        "type": "Point"
      },
      "id": 2
    },
    {
      "type": "Feature",
      "properties": {
        "title": "MedEvac at Heiligenthal, Hauptstraße"
      },
      "geometry": {
        "coordinates": [
          10.336700553669715,
          53.220286446750805
        ],
        "type": "Point"
      },
      "id": 3
    },
    {
      "type": "Feature",
      "properties": {
        "title": "Car accident on A39"
      },
      "geometry": {
        "coordinates": [
          10.32015049893485,
          53.31370643839796
        ],
        "type": "Point"
      },
      "id": 4
    },
    {
      "type": "Feature",
      "properties": {
        "title": "Car accident on B404"
      },
      "geometry": {
        "coordinates": [
          10.334796094702824,
          53.33285564688879
        ],
        "type": "Point"
      },
      "id": 5
    },
    {
      "type": "Feature",
      "properties": {
        "title": "Hospital Winsen",
        "marker-symbol": "hospital"
      },
      "geometry": {
        "coordinates": [
          10.199265119023437,
          53.34860122223179
        ],
        "type": "Point"
      },
      "id": 6
    },
    {
      "type": "Feature",
      "properties": {
        "title": "Klinikum Uelzen",
        "marker-symbol": "hospital"
      },
      "geometry": {
        "coordinates": [
          10.53266261154144,
          52.97322272971323
        ],
        "type": "Point"
      },
      "id": 7
    },
    {
      "type": "Feature",
      "properties": {
        "title": "MedEvac at Hohnstorf"
      },
      "geometry": {
        "coordinates": [
          10.55079170884369,
          53.36597221408283
        ],
        "type": "Point"
      },
      "id": 8
    },
    {
      "type": "Feature",
      "properties": {
        "title": "MedEvac at Lauenburg train station"
      },
      "geometry": {
        "coordinates": [
          10.567126950807477,
          53.36989266003667
        ],
        "type": "Point"
      },
      "id": 9
    },
    {
      "type": "Feature",
      "properties": {
        "title": "MedEvac at camping site Stover Strand"
      },
      "geometry": {
        "coordinates": [
          10.304816277769817,
          53.429604495969954
        ],
        "type": "Point"
      },
      "id": 10
    },
    {
      "type": "Feature",
      "properties": {
        "title": "MedEvac at Lauenburg bus station"
      },
      "geometry": {
        "coordinates": [
          10.554734991634405,
          53.37309484488506
        ],
        "type": "Point"
      },
      "id": 11
    },
    {
      "type": "Feature",
      "properties": {
        "title": "MedEvac at Kloster Ebstorf"
      },
      "geometry": {
        "coordinates": [
          10.41305322117077,
          53.03058529092442
        ],
        "type": "Point"
      },
      "id": 12
    },
    {
      "type": "Feature",
      "properties": {
        "title": "MedEvac at Tätendorf"
      },
      "geometry": {
        "coordinates": [
          10.543655214829954,
          53.04810173362972
        ],
        "type": "Point"
      },
      "id": 13
    },
    {
      "type": "Feature",
      "properties": {
        "title": "MedEvac at Bad Bevensen, Neptunbrunnen"
      },
      "geometry": {
        "coordinates": [
          10.58551273624019,
          53.079146254730915
        ],
        "type": "Point"
      },
      "id": 14
    },
    {
      "type": "Feature",
      "properties": {
        "title": "MedEvac at Heinsen"
      },
      "geometry": {
        "coordinates": [
          10.34527694080353,
          53.15928983887568
        ],
        "type": "Point"
      },
      "id": 15
    },
    {
      "type": "Feature",
      "properties": {
        "title": "Car Accident on B4 near Melbeck"
      },
      "geometry": {
        "coordinates": [
          10.446288200425585,
          53.15917996298393
        ],
        "type": "Point"
      },
      "id": 16
    },
    {
      "type": "Feature",
      "properties": {
        "title": "Car accident on B4 near Bargdorf"
      },
      "geometry": {
        "coordinates": [
          10.504967565637628,
          53.125255014016375
        ],
        "type": "Point"
      },
      "id": 17
    },
    {
      "type": "Feature",
      "properties": {
        "title": "Canoe accident at Bienenbüttel"
      },
      "geometry": {
        "coordinates": [
          10.487080419964371,
          53.14596924950487
        ],
        "type": "Point"
      },
      "id": 18
    },
    {
      "type": "Feature",
      "properties": {
        "title": "MedEvac at Scharnebeck Schiffshebewerk"
      },
      "geometry": {
        "coordinates": [
          10.490672560793087,
          53.293680955955494
        ],
        "type": "Point"
      },
      "id": 19
    },
    {
      "type": "Feature",
      "properties": {
        "title": "MedEvac at Ravener Dorfstraße"
      },
      "geometry": {
        "coordinates": [
          10.15905044457196,
          53.173984874291335
        ],
        "type": "Point"
      },
      "id": 20
    },
    {
      "type": "Feature",
      "properties": {
        "title": "MedEvac at Salzhausen school"
      },
      "geometry": {
        "coordinates": [
          10.167603583258597,
          53.21882386140226
        ],
        "type": "Point"
      },
      "id": 21
    },
    {
      "type": "Feature",
      "properties": {
        "title": "MedEvac as Salzhausen supermarket"
      },
      "geometry": {
        "coordinates": [
          10.159191329745653,
          53.227157492596945
        ],
        "type": "Point"
      },
      "id": 22
    },
    {
      "type": "Feature",
      "properties": {
        "title": "MedEvac at Maschen train yard"
      },
      "geometry": {
        "coordinates": [
          10.062092751746263,
          53.40213312648689
        ],
        "type": "Point"
      },
      "id": 23
    },
    {
      "type": "Feature",
      "properties": {
        "title": "MedEvac at Fliegenberg Sportplatz"
      },
      "geometry": {
        "coordinates": [
          10.13348856784097,
          53.41840434555314
        ],
        "type": "Point"
      },
      "id": 24
    },
    {
      "type": "Feature",
      "properties": {
        "title": "MedEvac at Barum center"
      },
      "geometry": {
        "coordinates": [
          10.410811785698087,
          53.351436643668876
        ],
        "type": "Point"
      },
      "id": 25
    },
    {
      "type": "Feature",
      "properties": {
        "title": "MedEvac at Neetze lake"
      },
      "geometry": {
        "coordinates": [
          10.457899131808603,
          53.343692982314536
        ],
        "type": "Point"
      },
      "id": 26
    },
    {
      "type": "Feature",
      "properties": {
        "title": "Boating accident at Elbe Fischtreppe"
      },
      "geometry": {
        "coordinates": [
          10.336222832307982,
          53.42694129877583
        ],
        "type": "Point"
      },
      "id": 27
    },
    {
      "type": "Feature",
      "properties": {
        "title": "Car accident on B216 near Norndorf"
      },
      "geometry": {
        "coordinates": [
          10.578000561826343,
          53.21846313175075
        ],
        "type": "Point"
      },
      "id": 28
    }
  ]
}
