{
  "type": "FeatureCollection",
  "features": [
    {
      "type": "Feature",
      "properties": {},
      "geometry": {
        "coordinates": [
          [
            [
              10.397099456446199,
              53.52996018662897
            ],
            [
              10.349249515258558,
              53.52855333556215
            ],
            [
              10.301869820958899,
              53.52434660989646
            ],
            [
              10.255425720201426,
              53.517381348033105
            ],
            [
              10.21037282146047,
              53.50772596847233
            ],
            [
              10.167152280405912,
              53.49547525796794
            ],
            [
              10.126186267170494,
              53.480749387624215
            ],
            [
              10.087873670492066,
              53.46369266930654
            ],
            [
              10.052586089125489,
              53.444472067844025
            ],
            [
              10.020664155484008,
              53.4232754873077
            ],
            [
              9.99241423036522,
              53.40030985210977
            ],
            [
              9.968105501034257,
              53.375799005751176
            ],
            [
              9.947967508073866,
              53.34998145172872
            ],
            [
              9.93218811946203,
              53.323107962385734
            ],
            [
              9.920911963486045,
              53.29543908235698
            ],
            [
              9.91423932551295,
              53.2672425537287
            ],
            [
              9.912225507452263,
              53.23879069013143
            ],
            [
              9.91488064308313,
              53.21035772673344
            ],
            [
              9.922169957360282,
              53.18221717254232
            ],
            [
              9.934014453417536,
              53.15463919058763
            ],
            [
              9.95029200728144,
              53.12788803048998
            ],
            [
              9.97083884729098,
              53.10221953666123
            ],
            [
              9.995451392868688,
              53.077878753966516
            ],
            [
              10.023888425560239,
              53.05509765114789
            ],
            [
              10.055873564093643,
              53.034092980695846
            ],
            [
              10.091098014533873,
              53.015064292189166
            ],
            [
              10.129223566344523,
              52.99819211442831
            ],
            [
              10.169885805231328,
              52.983636319987
            ],
            [
              10.21269751394941,
              52.97153468411264
            ],
            [
              10.257252232725628,
              52.96200164823351
            ],
            [
              10.303127951503699,
              52.955127296682754
            ],
            [
              10.349890906794315,
              52.95097655363173
            ],
            [
              10.397099456446199,
              52.94958860563577
            ],
            [
              10.444308006098085,
              52.95097655363173
            ],
            [
              10.4910709613887,
              52.955127296682754
            ],
            [
              10.536946680166771,
              52.96200164823351
            ],
            [
              10.581501398942986,
              52.97153468411264
            ],
            [
              10.62431310766107,
              52.983636319987
            ],
            [
              10.664975346547875,
              52.99819211442831
            ],
            [
              10.703100898358523,
              53.015064292189166
            ],
            [
              10.738325348798755,
              53.034092980695846
            ],
            [
              10.770310487332157,
              53.05509765114789
            ],
            [
              10.798747520023712,
              53.077878753966516
            ],
            [
              10.82336006560142,
              53.10221953666123
            ],
            [
              10.84390690561096,
              53.12788803048998
            ],
            [
              10.860184459474862,
              53.15463919058763
            ],
            [
              10.872028955532114,
              53.18221717254232
            ],
            [
              10.879318269809268,
              53.21035772673344
            ],
            [
              10.881973405440137,
              53.23879069013143
            ],
            [
              10.879959587379448,
              53.2672425537287
            ],
            [
              10.873286949406353,
              53.29543908235698
            ],
            [
              10.862010793430368,
              53.323107962385734
            ],
            [
              10.846231404818534,
              53.34998145172872
            ],
            [
              10.826093411858142,
              53.375799005751176
            ],
            [
              10.801784682527176,
              53.40030985210977
            ],
            [
              10.77353475740839,
              53.4232754873077
            ],
            [
              10.74161282376691,
              53.444472067844025
            ],
            [
              10.706325242400332,
              53.46369266930654
            ],
            [
              10.668012645721904,
              53.480749387624215
            ],
            [
              10.627046632486486,
              53.49547525796794
            ],
            [
              10.583826091431927,
              53.50772596847233
            ],
            [
              10.538773192690973,
              53.517381348033105
            ],
            [
              10.492329091933499,
              53.52434660989646
            ],
            [
              10.444949397633838,
              53.52855333556215
            ],
            [
              10.397099456446199,
              53.52996018662897
            ]
          ]
        ],
        "type": "Polygon"
      },
      "id": 0
    },
    {
      "type": "Feature",
      "properties": {
        "icaoCode": "EDHG",
        "title": "Lüneburg airfield",
        "marker-symbol": "heliport",
        "direction": 290
      },
      "geometry": {
        "coordinates": [
          10.457620941302837,
          53.24756138354581
        ],
        "type": "Point"
      },
      "id": 1
    },
    {
      "type": "Feature",
      "properties": {
        "title": "Amelinghausen, Sportplatz"
      },
      "geometry": {
        "coordinates": [
          10.22211473995057,
          53.124447358131846
        ],
        "type": "Point"
      }
    },
    {
      "type": "Feature",
      "properties": {
        "title": "Heiligenthal, Hauptstraße"
      },
      "geometry": {
        "coordinates": [
          10.336700553669715,
          53.220286446750805
        ],
        "type": "Point"
      }
    },
    {
      "type": "Feature",
      "properties": {
        "title": "A39",
        "marker-symbol": "road-accident"
      },
      "geometry": {
        "coordinates": [
          10.32015049893485,
          53.31370643839796
        ],
        "type": "Point"
      },
      "id": 4
    },
    {
      "type": "Feature",
      "properties": {
        "title": "B404",
        "marker-symbol": "road-accident"
      },
      "geometry": {
        "coordinates": [
          10.334796094702824,
          53.33285564688879
        ],
        "type": "Point"
      },
      "id": 5
    },
    {
      "type": "Feature",
      "properties": {
        "icaoCode": "de1034",
        "title": "Hospital Winsen/Luhe",
        "marker-symbol": "hospital"
      },
      "geometry": {
        "coordinates": [
          10.199265119023437,
          53.34860122223179
        ],
        "type": "Point"
      }
    },
    {
      "type": "Feature",
      "properties": {
        "icaoCode": "de0999",
        "title": "Klinikum Uelzen",
        "marker-symbol": "hospital"
      },
      "geometry": {
        "coordinates": [
          10.53266261154144,
          52.97322272971323
        ],
        "type": "Point"
      }
    },
    {
      "type": "Feature",
      "properties": {
        "title": "Hohnstorf"
      },
      "geometry": {
        "coordinates": [
          10.55079170884369,
          53.36597221408283
        ],
        "type": "Point"
      }
    },
    {
      "type": "Feature",
      "properties": {
        "title": "Lauenburg train station"
      },
      "geometry": {
        "coordinates": [
          10.567126950807477,
          53.36989266003667
        ],
        "type": "Point"
      }
    },
    {
      "type": "Feature",
      "properties": {
        "title": "camping site Stover Strand"
      },
      "geometry": {
        "coordinates": [
          10.304816277769817,
          53.429604495969954
        ],
        "type": "Point"
      }
    },
    {
      "type": "Feature",
      "properties": {
        "title": "Lauenburg bus station"
      },
      "geometry": {
        "coordinates": [
          10.554734991634405,
          53.37309484488506
        ],
        "type": "Point"
      }
    },
    {
      "type": "Feature",
      "properties": {
        "title": "Kloster Ebstorf"
      },
      "geometry": {
        "coordinates": [
          10.41305322117077,
          53.03058529092442
        ],
        "type": "Point"
      }
    },
    {
      "type": "Feature",
      "properties": {
        "title": "Tätendorf"
      },
      "geometry": {
        "coordinates": [
          10.543655214829954,
          53.04810173362972
        ],
        "type": "Point"
      }
    },
    {
      "type": "Feature",
      "properties": {
        "title": "Bad Bevensen, Neptunbrunnen"
      },
      "geometry": {
        "coordinates": [
          10.58551273624019,
          53.079146254730915
        ],
        "type": "Point"
      }
    },
    {
      "type": "Feature",
      "properties": {
        "title": "Heinsen"
      },
      "geometry": {
        "coordinates": [
          10.34527694080353,
          53.15928983887568
        ],
        "type": "Point"
      }
    },
    {
      "type": "Feature",
      "properties": {
        "title": "B4 near Melbeck",
        "marker-symbol": "road-accident"
      },
      "geometry": {
        "coordinates": [
          10.446288200425585,
          53.15917996298393
        ],
        "type": "Point"
      },
      "id": 16
    },
    {
      "type": "Feature",
      "properties": {
        "title": "B4 near Bargdorf",
        "marker-symbol": "road-accident"
      },
      "geometry": {
        "coordinates": [
          10.504967565637628,
          53.125255014016375
        ],
        "type": "Point"
      },
      "id": 17
    },
    {
      "type": "Feature",
      "properties": {
        "title": "Bienenbüttel"
      },
      "geometry": {
        "coordinates": [
          10.487080419964371,
          53.14596924950487
        ],
        "type": "Point"
      }
    },
    {
      "type": "Feature",
      "properties": {
        "title": "Scharnebeck Schiffshebewerk"
      },
      "geometry": {
        "coordinates": [
          10.490672560793087,
          53.293680955955494
        ],
        "type": "Point"
      }
    },
    {
      "type": "Feature",
      "properties": {
        "title": "Ravener Dorfstraße"
      },
      "geometry": {
        "coordinates": [
          10.15905044457196,
          53.173984874291335
        ],
        "type": "Point"
      }
    },
    {
      "type": "Feature",
      "properties": {
        "title": "Salzhausen school"
      },
      "geometry": {
        "coordinates": [
          10.167603583258597,
          53.21882386140226
        ],
        "type": "Point"
      }
    },
    {
      "type": "Feature",
      "properties": {
        "title": "Salzhausen supermarket"
      },
      "geometry": {
        "coordinates": [
          10.159191329745653,
          53.227157492596945
        ],
        "type": "Point"
      }
    },
    {
      "type": "Feature",
      "properties": {
        "title": "Maschen train yard"
      },
      "geometry": {
        "coordinates": [
          10.062092751746263,
          53.40213312648689
        ],
        "type": "Point"
      }
    },
    {
      "type": "Feature",
      "properties": {
        "title": "Fliegenberg Sportplatz"
      },
      "geometry": {
        "coordinates": [
          10.13348856784097,
          53.41840434555314
        ],
        "type": "Point"
      }
    },
    {
      "type": "Feature",
      "properties": {
        "title": "Barum center"
      },
      "geometry": {
        "coordinates": [
          10.410811785698087,
          53.351436643668876
        ],
        "type": "Point"
      }
    },
    {
      "type": "Feature",
      "properties": {
        "title": "Neetze lake"
      },
      "geometry": {
        "coordinates": [
          10.457899131808603,
          53.343692982314536
        ],
        "type": "Point"
      }
    },
    {
      "type": "Feature",
      "properties": {
        "title": "Elbe Fischtreppe"
      },
      "geometry": {
        "coordinates": [
          10.336222832307982,
          53.42694129877583
        ],
        "type": "Point"
      }
    },
    {
      "type": "Feature",
      "properties": {
        "title": "B216 near Norndorf"
      },
      "geometry": {
        "coordinates": [
          10.578000561826343,
          53.21846313175075
        ],
        "type": "Point"
      }
    },
    {
      "type": "Feature",
      "properties": {
        "marker-symbol": "hospital",
        "icaoCode": "de0819",
        "title": "Klinikum Lüneburg"
      },
      "geometry": {
        "coordinates": [
          10.395810021196723,
          53.24081383105499
        ],
        "type": "Point"
      },
      "id": 29
    },
    {
      "type": "Feature",
      "properties": {
        "title": "A7 near Toppenstedt",
        "marker-symbol": "road-accident"
      },
      "geometry": {
        "coordinates": [
          10.088219383819023,
          53.25998210137857
        ],
        "type": "Point"
      },
      "id": 30
    },
    {
      "type": "Feature",
      "properties": {
        "title": "near Köhlerhütte",
        "marker-symbol": "pitch"
      },
      "geometry": {
        "coordinates": [
          10.260094188899842,
          53.27204589064155
        ],
        "type": "Point"
      },
      "id": 31
    },
    {
      "type": "Feature",
      "properties": {
        "title": "ship near Altstadt",
        "marker-symbol": "ferry"
      },
      "geometry": {
        "coordinates": [
          10.381508838996467,
          53.42263937836077
        ],
        "type": "Point"
      },
      "id": 32
    }
  ]
}
