{
  "type": "FeatureCollection",
  "features": [
    {
      "type": "Feature",
      "geometry": {
        "type": "Point",
        "coordinates": [
          5.6351,
          58.8789,
          7
        ]
      },
      "properties": {
        "title": "Stavanger / Sola Airport",
        "marker-symbol": "airport"
      }
    },
    {
      "type": "Feature",
      "geometry": {
        "type": "Point",
        "coordinates": [
          5.634278369043103,
          58.89105636154335,
          7
        ]
      },
      "properties": {
        "title": "18",
        "marker-symbol": "triangle-stroked"
      }
    },
    {
      "type": "Feature",
      "geometry": {
        "type": "Point",
        "coordinates": [
          5.635921053679391,
          58.8667436332471,
          7
        ]
      },
      "properties": {
        "title": "36",
        "marker-symbol": "triangle-stroked"
      }
    },
    {
      "type": "Feature",
      "geometry": {
        "type": "Point",
        "coordinates": [
          5.614491695750591,
          58.88175215188143,
          7
        ]
      },
      "properties": {
        "title": "11",
        "marker-symbol": "triangle"
      }
    },
    {
      "type": "Feature",
      "geometry": {
        "type": "Point",
        "coordinates": [
          5.6557049041987755,
          58.87604456893042,
          7
        ]
      },
      "properties": {
        "title": "29",
        "marker-symbol": "triangle-stroked"
      }
    },
    {
      "type": "Feature",
      "geometry": {
        "type": "Point",
        "coordinates": [
          5.877341432817379,
          58.924715178200614,
          877.8415997048226
        ]
      },
      "properties": {
        "title": "BE58",
        "marker-symbol": "airfield"
      }
    },
    {
      "type": "Feature",
      "geometry": {
        "type": "Point",
        "coordinates": [
          5.686816833540215,
          58.87171362275524,
          7
        ]
      },
      "properties": {
        "title": "11-CROSS",
        "marker-symbol": "racetrack"
      }
    },
    {
      "type": "Feature",
      "geometry": {
        "type": "Point",
        "coordinates": [
          5.6951594185875845,
          58.88780127001152,
          7
        ]
      },
      "properties": {
        "title": "11-DOWN",
        "marker-symbol": "racetrack"
      }
    },
    {
      "type": "Feature",
      "geometry": {
        "type": "Point",
        "coordinates": [
          5.5917043592489,
          58.9021468010457,
          7
        ]
      },
      "properties": {
        "title": "11-BASE",
        "marker-symbol": "racetrack"
      }
    },
    {
      "type": "Feature",
      "geometry": {
        "type": "Point",
        "coordinates": [
          5.583358311544041,
          58.88605915394153,
          7
        ]
      },
      "properties": {
        "title": "11-FINAL",
        "marker-symbol": "racetrack"
      }
    }
  ]
}